     2              OBSERVATION DATA    GPS                 RINEX VERSION / TYPE
HDS2003                                                     PGM / RUN BY / DATE 
                                                            COMMENT             
92                                                          MARKER NAME
                                                            MARKER NUMBER       
                                                            OBSERVER / AGENCY   
              CSI                                           REC # / TYPE / VERS 
                                                            ANT # / TYPE        
 -2615204.8194  4732903.7150  3371166.5101                  APPROX POSITION XYZ 
        0.0400        0.0000        0.0000                  ANTENNA: DELTA H/E/N
     1     0                                                WAVELENGTH FACT L1/2
     2    C1    L1                                          # / TYPES OF OBSERV 
  2017     7     1     9    16   14.000000      GPS         TIME OF FIRST OBS   
  2017     7     1     9    44   24.000000      GPS         TIME OF LAST OBS    
                                                            END OF HEADER       
 17  7  1  9 16 15.0000000  0  9G23G02G28G03G06G17G12G09G19
  23795862.145    -4885543.799  
  23443754.136   -17514590.087  
  23227053.583    -9126094.943  
  24037150.899    -2359137.831  
  20792801.996   -63212299.886  
  20813227.510    -9953486.577  
  23309573.693    -8306476.884  
  22898511.811   -17736611.759  
  20443960.489    -4877062.818  
 17  7  1  9 16 20.0000000  0  9G23G02G28G03G06G17G12G09G19
  23795461.628    -4887654.286  
  23442084.393   -17523366.689  
  23230322.944    -9108926.043  
  24040335.978    -2342391.569  
  20792572.044   -63213505.914  
  20813717.596    -9950908.936  
  23307398.263    -8317908.830  
  22896639.164   -17746449.156  
  20443671.440    -4878588.645  
 17  7  1  9 16 25.0000000  0  9G23G02G28G03G06G17G12G09G19
  23795061.879    -4889746.937  
  23440415.562   -17532135.597  
  23233592.072    -9091747.797  
  24043523.544    -2325635.818  
  20792345.007   -63214701.207  
  20814211.456    -9948314.935  
  23305227.894    -8329322.178  
  22894768.716   -17756271.913  
  20443382.587    -4880098.291  
 17  7  1  9 16 30.0000000  0  9G23G02G28G03G06G17G12G09G19
  23794666.535    -4891824.111  
  23438747.272   -17540899.017  
  23236861.026    -9074562.415  
  24046714.513    -2308872.746  
  20792118.798   -63215888.015  
  20814707.575    -9945706.838  
  23303058.211    -8340719.277  
  22892902.387   -17766082.245  
  20443098.426    -4881594.067  
 17  7  1  9 16 35.0000000  0  9G23G02G28G03G06G17G12G09G19
  23794272.287    -4893888.985  
  23437079.935   -17549660.230  
  23240133.508    -9057373.251  
  24049906.005    -2292105.702  
  20791893.398   -63217069.604  
  20815206.507    -9943087.876  
  23300890.625    -8352103.350  
  22891038.013   -17775883.363  
  20442815.933    -4883079.223  
 17  7  1  9 16 40.0000000  0  9G23G02G28G03G06G17G12G09G19
  23793882.686    -4895943.041  
  23435413.526   -17558420.587  
  23243403.054    -9040181.650  
  24053097.137    -2275336.006  
  20791669.928   -63218247.372  
  20815706.652    -9940459.493  
  23298728.401    -8363475.753  
  22889174.423   -17785676.716  
  20442534.224    -4884555.103  
 17  7  1  9 16 45.0000000  0  9G23G02G28G03G06G17G12G09G19
  23793491.932    -4897985.806  
  23433746.964   -17567179.752  
  23246675.739    -9022987.251  
  24056289.404    -2258563.380  
  20791446.734   -63219421.007  
  20816208.219    -9937821.276  
  23296566.312    -8374836.072  
  22887310.108   -17795461.881  
  20442256.655    -4886021.338  
 17  7  1  9 16 50.0000000  0  9G23G02G28G03G06G17G12G09G19
  23793107.480    -4900016.098  
  23432081.267   -17575936.652  
  23249947.143    -9005788.949  
  24059481.678    -2241786.646  
  20791224.405   -63220589.252  
  20816712.654    -9935172.061  
  23294407.091    -8386183.247  
  22885453.383   -17805237.721  
  20441980.095    -4887476.795  
 17  7  1  9 16 55.0000000  0  9G23G02G28G03G06G17G12G09G19
  23792722.868    -4902034.289  
  23430413.979   -17584691.501  
  23253223.395    -8988586.974  
  24062671.932    -2225006.153  
  20791002.346   -63221752.531  
  20817218.789    -9932512.209  
  23292251.001    -8397517.399  
  22883592.778   -17815004.457  
  20441703.231    -4888921.752  
 17  7  1  9 17  0.0000000  0  9G23G02G28G03G06G17G12G09G19
  23792340.774    -4904040.436  
  23428746.919   -17593444.355  
  23256496.298    -8971381.527  
  24065871.858    -2208221.874  
  20790782.232   -63222910.811  
  20817726.441    -9929841.718  
  23290096.285    -8408838.795  
  22881737.124   -17824762.224  
  20441430.602    -4890356.173  
 17  7  1  9 17  5.0000000  0  9G23G02G28G03G06G17G12G09G19
  23791960.783    -4906034.523  
  23427084.538   -17602195.203  
  23259772.877    -8954172.544  
  24069064.442    -2191433.930  
  20790562.360   -63224064.122  
  20818236.767    -9927160.586  
  23287943.956    -8420147.201  
  22879882.570   -17834510.936  
  20441160.648    -4891780.205  
 17  7  1  9 17 10.0000000  0  9G23G02G28G03G06G17G12G09G19
  23791584.887    -4908016.623  
  23425417.524   -17610944.361  
  23263045.969    -8936960.295  
  24072260.694    -2174642.469  
  20790344.581   -63225212.546  
  20818749.186    -9924468.934  
  23285792.863    -8431443.189  
  22878028.964   -17844250.791  
  20440892.644    -4893193.851  
 17  7  1  9 17 15.0000000  0  9G23G02G28G03G06G17G12G09G19
  23791210.292    -4909986.540  
  23423754.672   -17619691.371  
  23266323.652    -8919744.322  
  24075455.813    -2157847.070  
  20790126.529   -63226355.919  
  20819263.192    -9921766.503  
  23283646.503    -8442725.671  
  22876176.945   -17853981.394  
  20440623.651    -4894596.904  
 17  7  1  9 17 20.0000000  0  8G23G02G28G06G17G12G09G19
  23790837.909    -4911944.720  
  23422089.454   -17628436.845  
  23269597.966    -8902525.321  
  20789909.686   -63227494.793  
  20819780.411    -9919053.829  
  23281502.785    -8453995.745  
  22874325.563   -17863703.381  
  20440358.443    -4895989.975  
 17  7  1  9 17 25.0000000  0  9G23G02G28G03G06G17G12G09G19
  23790467.427    -4913892.083  
  23420427.710   -17637181.487  
  23272877.044    -8885304.099  
  24081851.374    24678822.645  
  20789693.887   -63228629.808  
  20820297.672    -9916331.663  
  23279358.822    -8465253.862  
  22872478.516   -17873417.442  
  20440095.567    -4897373.648  
 17  7  1  9 17 30.0000000  0  9G23G02G28G03G06G17G12G09G19
  23790100.449    -4915826.618  
  23418762.317   -17645923.441  
  23276155.190    -8868078.783  
  24085046.670    24695628.047  
  20789479.302   -63229759.274  
  20820816.862    -9913598.281  
  23277220.080    -8476498.655  
  22870632.111   -17883121.787  
  20439835.049    -4898746.209  
 17  7  1  9 17 35.0000000  0  8G23G02G28G03G06G17G09G19
  23789732.817    -4917748.249  
  23417097.413   -17654662.831  
  23279434.828    -8850849.166  
  24088245.891    24712437.920  
  20789264.922   -63230882.908  
  20821340.264    -9910853.385  
  22868787.055   -17892816.193  
  20439576.453    -4900107.464  
 17  7  1  9 17 40.0000000  0  8G23G02G28G03G06G17G09G19
  23789370.329    -4919658.294  
  23415431.787   -17663400.465  
  23282711.883    -8833616.644  
  24091444.245    24729250.881  
  20789052.394   -63232002.166  
  20821864.373    -9908098.290  
  22866943.709   -17902502.002  
  20439318.709    -4901458.702  
 17  7  1  9 17 45.0000000  0  8G23G02G28G03G06G17G09G19
  23789007.683    -4921556.307  
  23413769.580   -17672136.585  
  23285992.930    -8816380.809  
  24094646.448    24746067.348  
  20788840.710   -63233116.616  
  20822390.900    -9905332.686  
  22865102.351   -17912178.838  
  20439063.095    -4902799.542  
 17  7  1  9 17 50.0000000  0  9G23G02G28G03G06G17G12G09G19
  23788650.305    -4923439.397  
  23412112.927   -17680867.829  
  23289269.657    -8799138.796  
  24097845.619    24762890.205  
  20788630.001   -63234223.272  
  20822918.975    -9902553.594  
  23268687.172    49566223.635  
  22863262.254   -17921843.691  
  20438811.176    -4904127.032  
 17  7  1  9 17 55.0000000  0  9G23G02G28G03G06G17G12G09G19
  23788293.645    -4925311.988  
  23410451.698   -17689598.741  
  23292553.827    -8781895.042  
  24101047.655    24779715.076  
  20788419.866   -63235326.639  
  20823450.057    -9899765.449  
  23266558.461    49555044.859  
  22861424.878   -17931500.979  
  20438560.260    -4905445.670  
 17  7  1  9 18  0.0000000  0  9G23G02G28G03G06G17G12G09G19
  23787940.629    -4927172.270  
  23408791.395   -17698327.533  
  23295835.204    -8764647.743  
  24104250.331    24796543.653  
  20788210.945   -63236424.845  
  20823983.353    -9896966.410  
  23264433.682    49543879.246  
  22859589.144   -17941148.968  
  20438311.702    -4906753.575  
 17  7  1  9 18  5.0000000  0  9G23G02G28G03G06G17G12G09G19
  23787586.494    -4929020.292  
  23407129.256   -17707054.450  
  23299119.181    -8747396.971  
  24107452.888    24813375.930  
  20788001.905   -63237518.048  
  20824517.961    -9894156.596  
  23262311.503    49532726.727  
  22857754.151   -17950787.696  
  20438063.884    -4908050.902  
 17  7  1  9 18 10.0000000  0  9G23G02G28G03G06G17G12G09G19
  23787238.212    -4930856.200  
  23405468.535   -17715779.393  
  23302401.999    -8730142.873  
  24110656.291    24830211.785  
  20787794.997   -63238606.345  
  20825054.989    -9891336.134  
  23260192.887    49521587.316  
  22855921.719   -17960417.178  
  20437819.487    -4909337.686  
 17  7  1  9 18 15.0000000  0  9G23G02G28G03G06G17G12G09G19
  23786890.324    -4932679.890  
  23403809.210   -17724502.417  
  23305686.357    -8712885.439  
  24113862.664    24847051.127  
  20787589.200   -63239689.695  
  20825592.841    -9888504.917  
  23258075.096    49510460.768  
  22854090.970   -17970037.496  
  20437575.627    -4910613.924  
 17  7  1  9 18 20.0000000  0  9G23G02G28G03G06G17G12G09G19
  23786546.049    -4934491.645  
  23402150.063   -17733223.534  
  23308969.748    -8695624.848  
  24117064.206    24863893.935  
  20787384.440   -63240768.245  
  20826133.875    -9885663.139  
  23255959.056    49499347.206  
  22852264.835   -17979648.695  
  20437335.523    -4911879.735  
 17  7  1  9 18 25.0000000  0  9G23G02G28G03G06G17G12G09G19
  23786204.392    -4936291.137  
  23400490.100   -17741942.692  
  23312256.759    -8678360.923  
  24120270.084    24880740.304  
  20787179.865   -63241841.822  
  20826676.097    -9882810.591  
  23253846.780    49488246.742  
  22850435.595   -17989250.625  
  20437096.749    -4913134.946  
 17  7  1  9 18 30.0000000  0  9G23G02G28G03G06G17G12G09G19
  23785864.010    -4938078.312  
  23398830.410   -17750659.810  
  23315542.612    -8661093.575  
  24123477.523    24897590.258  
  20786977.566   -63242910.405  
  20827221.596    -9879947.277  
  23251735.635    49477159.426  
  22848609.775   -17998843.256  
  20436860.251    -4914379.560  
 17  7  1  9 18 35.0000000  0  9G23G02G28G03G06G17G12G09G19
  23785526.990    -4939853.243  
  23397172.795   -17759374.934  
  23318832.115    -8643822.894  
  24126686.178    24914443.834  
  20786774.051   -63243973.971  
  20827768.885    -9877073.111  
  23249628.139    49466085.229  
  22846786.316   -18008426.520  
  20436624.112    -4915613.528  
 17  7  1  9 18 40.0000000  0  9G23G02G28G03G06G17G12G09G19
  23785191.705    -4941616.120  
  23395513.338   -17768088.169  
  23322117.341    -8626549.034  
  24129895.137    24931300.782  
  20786573.702   -63245032.717  
  20828318.051    -9874188.317  
  23247523.093    49455024.006  
  22844963.877   -18018000.575  
  20436391.424    -4916837.027  
 17  7  1  9 18 45.0000000  0  9G23G02G28G03G06G17G12G09G19
  23784858.124    -4943366.758  
  23393856.157   -17776799.436  
  23325403.271    -8609271.891  
  24133101.937    24948161.244  
  20786372.338   -63246086.480  
  20828867.920    -9871292.724  
  23245423.472    49443975.950  
  22843143.714   -18027565.316  
  20436161.155    -4918049.853  
 17  7  1  9 18 50.0000000  0  9G23G02G28G03G06G17G12G09G19
  23784525.181    -4945105.344  
  23392198.754   -17785508.871  
  23328693.128    -8591991.579  
  24136309.803    24965025.149  
  20786172.327   -63247135.433  
  20829420.572    -9868386.522  
  23243323.200    49432940.809  
  22841326.764   -18037120.822  
  20435932.669    -4919252.187  
 17  7  1  9 18 55.0000000  0  9G23G02G28G03G06G17G12G09G19
  23784197.114    -4946831.701  
  23390543.367   -17794216.502  
  23331979.563    -8574708.148  
  24139520.399    24981892.402  
  20785973.758   -63248179.539  
  20829976.098    -9865469.657  
  23241225.515    49421918.780  
  22839510.685   -18046667.125  
  20435704.480    -4920444.003  
 17  7  1  9 19  0.0000000  0  9G23G02G28G03G06G17G12G09G19
  23783870.497    -4948545.870  
  23388886.710   -17802922.122  
  23335270.739    -8557421.412  
  24142729.297    24998763.150  
  20785776.210   -63249218.690  
  20830534.075    -9862542.022  
  23239130.425    49410909.878  
  22837694.910   -18056204.019  
  20435480.603    -4921625.208  
 17  7  1  9 19  5.0000000  0  9G23G02G28G03G06G17G12G09G19
  23783547.960    -4950247.890  
  23387231.415   -17811625.891  
  23338562.847    -8540131.497  
  24145943.133    25015637.324  
  20785580.023   -63250252.948  
  20831092.984    -9859603.664  
  23237039.987    49399914.121  
  22835881.927   -18065731.630  
  20435258.230    -4922795.840  
 17  7  1  9 19 10.0000000  0  9G23G02G28G03G06G17G12G09G19
  23783227.983    -4951937.942  
  23385574.673   -17820328.067  
  23341854.654    -8522838.702  
  24149155.381    25032514.632  
  20785383.964   -63251282.644  
  20831654.597    -9856654.850  
  23234947.817    49388931.228  
  22834069.502   -18075250.160  
  20435035.699    -4923956.128  
 17  7  1  9 19 15.0000000  0  9G23G02G28G03G06G17G12G09G19
  23782907.957    -4953615.910  
  23383921.174   -17829028.401  
  23345144.694    -8505542.843  
  24152367.293    25049395.211  
  20785188.428   -63252307.541  
  20832217.448    -9853695.443  
  23232860.892    49377961.242  
  22832260.318   -18084759.441  
  20434818.556    -4925105.951  
 17  7  1  9 19 20.0000000  0  9G23G02G28G03G06G17G12G09G19
  23782590.955    -4955281.595  
  23382264.974   -17837726.821  
  23348435.611    -8488243.793  
  24155580.082    25066279.266  
  20784994.341   -63253327.500  
  20832782.178    -9850725.217  
  23230776.132    49367004.524  
  22830453.300   -18094259.358  
  20434600.001    -4926245.138  
 17  7  1  9 19 25.0000000  0  9G23G02G28G03G06G17G12G09G19
  23782277.869    -4956935.133  
  23380609.544   -17846423.397  
  23351728.156    -8470941.611  
  24158792.496    25083166.662  
  20784800.738   -63254342.594  
  20833349.394    -9847744.289  
  23228691.855    49356060.934  
  22828646.335   -18103749.858  
  20434386.651    -4927373.698  
 17  7  1  9 19 30.0000000  0  9G23G02G28G03G06G17G12G09G19
  23781964.665    -4958576.285  
  23378954.137   -17855117.876  
  23355021.298    -8453636.206  
  24162008.368    25100057.551  
  20784609.162   -63255352.698  
  20833918.209    -9844752.486  
  23226613.469    49345130.629  
  22826842.685   -18113230.883  
  20434174.469    -4928491.537  
 17  7  1  9 19 35.0000000  0  9G23G02G28G03G06G17G12G09G19
  23781655.540    -4960205.170  
  23377301.093   -17863810.473  
  23358315.657    -8436327.662  
  24165221.593    25116951.812  
  20784416.800   -63256357.869  
  20834490.101    -9841749.915  
  23224534.726    49334213.460  
  22825039.967   -18122702.421  
  20433964.078    -4929598.745  
 17  7  1  9 19 40.0000000  0  9G23G02G28G03G06G17G12G09G19
  23781347.825    -4961821.759  
  23375646.311   -17872501.070  
  23361608.850    -8419015.968  
  24168437.231    25133849.536  
  20784227.422   -63257358.071  
  20835063.117    -9838736.435  
  23222461.114    49323309.584  
  22823239.517   -18132164.507  
  20433755.812    -4930695.169  
 17  7  1  9 19 45.0000000  0  9G23G02G28G03G06G17G12G09G19
  23781039.966    -4963426.084  
  23373993.531   -17881189.814  
  23364903.473    -8401701.164  
  24171655.729    25150750.569  
  20784037.328   -63258353.415  
  20835638.993    -9835712.244  
  23220389.075    49312418.891  
  22821441.212   -18141617.140  
  20433548.403    -4931780.999  
 17  7  1  9 19 50.0000000  0  9G23G02G28G03G06G17G12G09G19
  23780739.316    -4965018.197  
  23372340.948   -17889876.683  
  23368201.013    -8384383.363  
  24174871.849    25167654.935  
  20783848.719   -63259343.921  
  20836216.499    -9832677.299  
  23218318.377    49301541.403  
  22819643.821   -18151060.364  
  20433344.340    -4932856.200  
 17  7  1  9 19 55.0000000  0  9G23G02G28G03G06G17G12G09G19
  23780437.483    -4966598.153  
  23370687.183   -17898561.753  
  23371495.080    -8367062.519  
  24178087.788    25184562.537  
  20783661.502   -63260329.615  
  20836796.541    -9829631.632  
  23216252.507    49290677.088  
  22817848.537   -18160494.196  
  20433140.382    -4933920.834  
 17  7  1  9 20  0.0000000  0  9G23G02G28G03G06G17G12G09G19
  23780138.548    -4968165.793  
  23369033.740   -17907244.871  
  23374793.189    -8349738.578  
  24181305.909    25201473.491  
  20783475.896   -63261310.394  
  20837378.051    -9826575.156  
  23214188.247    49279825.948  
  22816055.866   -18169918.504  
  20432940.753    -4934974.819  
 17  7  1  9 20  5.0000000  0  9G23G02G28G03G06G17G12G09G19
  23779843.982    -4969721.132  
  23367382.661   -17915926.072  
  23378089.371    -8332411.636  
  24184524.249    25218387.761  
  20783289.507   -63262286.271  
  20837962.068    -9823507.855  
  23212122.775    49268988.158  
  22814263.985   -18179333.281  
  20432742.487    -4936018.033  
 17  7  1  9 20 10.0000000  0  9G23G02G28G03G06G17G12G09G19
  23779548.726    -4971264.228  
  23365731.753   -17924605.434  
  23381387.583    -8315081.630  
  24187745.478    25235305.329  
  20783104.289   -63263257.324  
  20838546.685    -9820429.753  
  23210064.484    49258163.606  
  22812474.278   -18188738.618  
  20432546.395    -4937050.571  
 17  7  1  9 20 15.0000000  0  9G23G02G28G03G06G17G12G09G19
  23779258.853    -4972794.856  
  23364078.643   -17933282.763  
  23384685.454    -8297748.545  
  24190963.073    25252226.265  
  20782920.733   -63264223.344  
  20839134.394    -9817340.788  
  23208006.566    49247352.410  
  22810686.804   -18198134.285  
  20432351.534    -4938072.349  
 17  7  1  9 20 20.0000000  0  9G23G02G28G03G06G17G12G09G19
  23778969.161    -4974313.270  
  23362429.006   -17941958.278  
  23387983.506    -8280412.428  
  24194182.282    25269150.491  
  20782737.358   -63265184.534  
  20839725.147    -9814240.930  
  23205952.695    49236554.433  
  22808900.228   -18207520.403  
  20432158.716    -4939083.428  
 17  7  1  9 20 25.0000000  0  9G23G02G28G03G06G17G12G09G19
  23778682.890    -4975819.173  
  23360777.780   -17950631.685  
  23391283.833    -8263073.140  
  24197403.909    25286078.154  
  20782556.403   -63266140.651  
  20840318.462    -9811130.100  
  23203899.238    49225769.956  
  22807116.643   -18216896.788  
  20431969.031    -4940083.601  
 17  7  1  9 20 30.0000000  0  9G23G02G28G03G06G17G12G09G19
  23778399.063    -4977312.788  
  23359129.143   -17959303.185  
  23394584.317    -8245730.863  
  24200626.693    25303009.095  
  20782374.601   -63267091.873  
  20840911.789    -9808008.405  
  23201850.516    49214998.788  
  22805333.070   -18226263.586  
  20431779.645    -4941073.033  
 17  7  1  9 20 35.0000000  0  9G23G02G28G03G06G17G12G09G19
  23778117.421    -4978794.088  
  23357478.970   -17967972.862  
  23397884.122    -8228385.666  
  24203851.662    25319943.275  
  20782195.270   -63268038.269  
  20841506.728    -9804875.932  
  23199803.119    49204240.899  
  22803553.112   -18235620.863  
  20431593.875    -4942051.749  
 17  7  1  9 20 40.0000000  0  9G23G02G28G03G06G17G12G09G19
  23777837.537    -4980263.289  
  23355827.693   -17976640.823  
  23401186.402    -8211037.656  
  24207073.810    25336880.492  
  20782016.266   -63268979.962  
  20842104.999    -9801732.764  
  23197757.911    49193496.194  
  22801773.482   -18244968.713  
  20431410.435    -4943019.942  
 17  7  1  9 20 45.0000000  0  9G23G02G28G03G06G17G12G09G19
  23777560.583    -4981720.056  
  23354178.917   -17985306.817  
  23404484.313    -8193686.581  
  24210297.456    25353821.003  
  20781837.758   -63269916.740  
  20842704.769    -9798578.727  
  23195716.347    49182764.819  
  22799996.638   -18254306.863  
  20431228.065    -4943977.294  
 17  7  1  9 20 50.0000000  0  9G23G02G28G03G06G17G12G09G19
  23777285.634    -4983164.569  
  23352529.140   -17993970.998  
  23407789.380    -8176332.655  
  24213521.104    25370764.709  
  20781660.255   -63270848.665  
  20843307.975    -9795413.841  
  23193677.789    49172046.817  
  22798223.373   -18263635.450  
  20431047.413    -4944923.905  
 17  7  1  9 20 55.0000000  0  9G23G02G28G03G06G17G12G09G19
  23777012.650    -4984596.684  
  23350883.475   -18002633.222  
  23411093.980    -8158975.751  
  24216747.576    25387711.663  
  20781484.144   -63271775.680  
  20843911.429    -9792238.071  
  23191640.053    49161342.196  
  22796448.783   -18272954.351  
  20430869.299    -4945859.785  
 17  7  1  9 21  0.0000000  0  9G23G02G28G03G06G17G12G09G19
  23776742.195    -4986016.431  
  23349234.473   -18011293.551  
  23414395.529    -8141615.954  
  24219972.857    25404661.834  
  20781310.133   -63272697.830  
  20844517.985    -9789051.473  
  23189606.133    49150650.966  
  22794677.580   -18282263.569  
  20430693.285    -4946784.879  
 17  7  1  9 21  5.0000000  0  9G23G02G28G03G06G17G12G09G19
  23776475.954    -4987423.952  
  23347586.680   -18019952.122  
  23417701.292    -8124253.380  
  24223198.489    25421615.074  
  20781135.185   -63273615.222  
  20845126.322    -9785854.102  
  23187572.421    49139973.007  
  22792906.585   -18291563.239  
  20430519.768    -4947699.304  
 17  7  1  9 21 10.0000000  0  9G23G02G28G03G06G17G12G09G19
  23776208.410    -4988819.056  
  23345939.300   -18028608.744  
  23421006.324    -8106887.851  
  24226423.818    25438571.544  
  20780959.362   -63274527.729  
  20845737.219    -9782645.800  
  23185543.987    49129308.466  
  22791139.007   -18300853.201  
  20430348.095    -4948602.962  
 17  7  1  9 21 15.0000000  0  9G23G02G28G03G06G17G12G09G19
  23775943.920    -4990201.833  
  23344290.253   -18037263.536  
  23424310.260    -8089519.518  
  24229652.345    25455531.133  
  20780787.310   -63275435.379  
  20846350.025    -9779426.670  
  23183517.893    49118657.276  
  22789374.485   -18310133.507  
  20430178.189    -4949495.897  
 17  7  1  9 21 20.0000000  0  9G23G02G28G03G06G17G12G09G19
  23775685.590    -4991572.253  
  23342643.788   -18045916.413  
  23427616.493    -8072148.329  
  24232880.736    25472493.874  
  20780615.837   -63276338.225  
  20846964.413    -9776196.661  
  23181491.805    49108019.469  
  22787608.968   -18319404.166  
  20430009.720    -4950378.093  
 17  7  1  9 21 25.0000000  0  9G23G02G28G03G06G17G12G09G19
  23775426.264    -4992930.246  
  23341001.478   -18054567.382  
  23430921.443    -8054774.245  
  24236110.134    25489459.796  
  20780444.226   -63277236.152  
  20847581.239    -9772955.748  
  23179472.878    49097395.072  
  22785845.173   -18328665.004  
  20429844.262    -4951249.472  
 17  7  1  9 21 30.0000000  0  9G23G02G28G03G06G17G12G09G19
  23775171.862    -4994275.941  
  23339353.361   -18063216.533  
  23434226.596    -8037397.370  
  24239338.160    25506428.776  
  20780274.534   -63278129.288  
  20848201.414    -9769703.942  
  23177452.578    49086784.047  
  22784086.875   -18337916.181  
  20429680.437    -4952110.107  
 17  7  1  9 21 35.0000000  0  9G23G02G28G03G06G17G12G09G19
  23774916.455    -4995609.196  
  23337709.533   -18071863.784  
  23437534.750    -8020017.667  
  24242567.757    25523400.982  
  20780105.984   -63279017.516  
  20848821.873    -9766441.128  
  23175435.280    49076186.508  
  22782328.001   -18347157.570  
  20429518.613    -4952959.844  
 17  7  1  9 21 40.0000000  0  9G23G02G28G03G06G17G12G09G19
  23774664.589    -4996930.083  
  23336063.093   -18080509.173  
  23440841.437    -8002635.143  
  24245800.179    25540376.202  
  20779937.827   -63279900.932  
  20849444.585    -9763167.522  
  23173421.810    49065602.438  
  22780570.236   -18356389.216  
  20429357.753    -4953798.854  
 17  7  1  9 21 45.0000000  0  9G23G02G28G03G06G17G12G09G19
  23774418.309    -4998238.647  
  23334418.233   -18089152.809  
  23444152.137    -7985249.832  
  24249029.460    25557354.549  
  20779770.248   -63280779.499  
  20850068.877    -9759883.033  
  23171410.492    49055031.888  
  22778816.912   -18365611.105  
  20429201.765    -4954627.096  
 17  7  1  9 21 50.0000000  0  9G23G02G28G03G06G17G12G09G19
  23774172.145    -4999534.841  
  23332772.487   -18097794.651  
  23447461.664    -7967861.816  
  24252260.715    25574335.887  
  20779603.786   -63281653.338  
  20850696.861    -9756587.723  
  23169400.862    49044474.701  
  22777063.990   -18374823.329  
  20429046.034    -4955444.562  
 17  7  1  9 21 55.0000000  0  9G23G02G28G03G06G17G12G09G19
  23773925.819    -5000818.513  
  23331129.727   -18106434.655  
  23450768.739    -7950470.984  
  24255492.095    25591320.379  
  20779438.021   -63282522.238  
  20851324.683    -9753281.464  
  23167394.648    49033931.029  
  22775312.480   -18384025.662  
  20428891.287    -4956251.156  
 17  7  1  9 22  0.0000000  0  9G23G02G28G03G06G17G12G09G19
  23773684.058    -5002089.840  
  23329487.239   -18115072.855  
  23454079.236    -7933077.373  
  24258724.177    25608307.913  
  20779273.673   -63283386.326  
  20851956.785    -9749964.302  
  23165390.997    49023400.853  
  22773564.390   -18393218.185  
  20428741.248    -4957046.961  
 17  7  1  9 22  5.0000000  0  9G23G02G28G03G06G17G12G09G19
  23773443.467    -5003348.836  
  23327842.773   -18123709.255  
  23457392.905    -7915681.127  
  24261956.284    25625298.424  
  20779110.351   -63284245.709  
  20852589.198    -9746636.317  
  23163390.089    49012884.022  
  22771816.612   -18402401.029  
  20428591.521    -4957832.008  
 17  7  1  9 22 10.0000000  0  9G23G02G28G03G06G17G12G09G19
  23773206.592    -5004595.494  
  23326199.162   -18132343.764  
  23460700.131    -7898282.213  
  24265191.534    25642291.976  
  20778948.170   -63285100.218  
  20853226.042    -9743296.924  
  23161391.037    49002380.696  
  22770068.973   -18411573.993  
  20428443.220    -4958606.268  
 17  7  1  9 22 15.0000000  0  9G23G02G28G03G06G17G12G09G19
  23772971.974    -5005829.644  
  23324557.091   -18140976.305  
  23464011.759    -7880880.412  
  24268425.034    25659288.676  
  20778786.242   -63285949.782  
  20853862.996    -9739947.504  
  23159395.100    48991890.905  
  22768325.736   -18420737.043  
  20428298.606    -4959369.602  
 17  7  1  9 22 20.0000000  0  9G23G02G28G03G06G17G12G09G19
  23772738.934    -5007051.482  
  23322915.883   -18149607.126  
  23467325.253    -7863476.038  
  24271660.686    25676288.282  
  20778625.035   -63286794.697  
  20854502.388    -9736586.777  
  23157400.170    48981414.582  
  22766583.363   -18429890.350  
  20428155.571    -4960122.183  
 17  7  1  9 22 25.0000000  0  9G23G02G28G03G06G17G12G09G19
  23772509.603    -5008260.803  
  23321272.089   -18158236.111  
  23470638.306    -7846068.958  
  24274897.042    25693290.882  
  20778465.962   -63287634.743  
  20855144.201    -9733215.116  
  23155408.089    48970951.836  
  22764842.409   -18439033.762  
  20428014.814    -4960863.897  
 17  7  1  9 22 30.0000000  0  9G23G02G28G03G06G17G12G09G19
  23772282.000    -5009457.704  
  23319631.311   -18166863.187  
  23473951.942    -7828659.183  
  24278131.548    25710296.540  
  20778307.044   -63288469.926  
  20855787.742    -9729832.481  
  23153422.173    48960502.724  
  22763106.188   -18448167.272  
  20427875.213    -4961594.747  
 17  7  1  9 22 35.0000000  0  9G23G02G28G03G06G17G12G09G19
  23772057.548    -5010642.219  
  23317990.105   -18175488.518  
  23477263.864    -7811246.835  
  24281369.348    25727305.107  
  20778148.986   -63289300.361  
  20856433.289    -9726438.974  
  23151434.686    48950066.991  
  22761369.970   -18457290.955  
  20427737.475    -4962314.714  
 17  7  1  9 22 40.0000000  0  9G23G02G28G03G06G17G12G09G19
  23771834.286    -5011814.257  
  23316348.659   -18184111.959  
  23480578.692    -7793831.783  
  24284606.191    25744316.701  
  20777991.975   -63290125.956  
  20857081.456    -9723034.541  
  23149451.249    48939644.835  
  22759635.943   -18466404.683  
  20427603.931    -4963023.868  
 17  7  1  9 22 45.0000000  0  9G23G02G28G03G06G17G12G09G19
  23771613.074    -5012973.779  
  23314707.260   -18192733.602  
  23483892.566    -7776414.065  
  24287844.513    25761331.273  
  20777836.014   -63290946.698  
  20857732.676    -9719619.090  
  23147471.152    48929236.313  
  22757903.967   -18475508.473  
  20427470.578    -4963722.118  
 17  7  1  9 22 50.0000000  0  9G23G02G28G03G06G17G12G09G19
  23771393.544    -5014120.916  
  23313068.401   -18201353.427  
  23487207.979    -7758993.748  
  24291081.655    25778348.771  
  20777680.732   -63291762.683  
  20858383.145    -9716192.754  
  23145494.739    48918841.290  
  22756173.386   -18484602.403  
  20427338.763    -4964409.540  
 17  7  1  9 22 55.0000000  0  9G23G02G28G03G06G17G12G09G19
  23771177.909    -5015255.598  
  23311426.712   -18209971.453  
  23490523.280    -7741570.826  
  24294320.831    25795369.174  
  20777526.197   -63292573.879  
  20859038.224    -9712755.477  
  23143517.213    48908459.799  
  22754443.266   -18493686.381  
  20427209.984    -4965086.034  
 17  7  1  9 23  0.0000000  0  9G23G02G28G03G06G17G12G09G19
  23770964.105    -5016377.801  
  23309788.284   -18218587.620  
  23493838.552    -7724145.297  
  24297560.836    25812392.527  
  20777372.205   -63293380.233  
  20859694.562    -9709307.230  
  23141544.952    48898091.932  
  22752717.552   -18502760.354  
  20427084.468    -4965751.652  
 17  7  1  9 23  5.0000000  0  9G23G02G28G03G06G17G12G09G19
  23770753.372    -5017487.466  
  23308148.207   -18227201.901  
  23497154.892    -7706717.101  
  24300800.909    25829418.885  
  20777220.999   -63294181.742  
  20860351.825    -9705847.986  
  23139574.046    48887737.745  
  22750992.335   -18511824.316  
  20426958.875    -4966406.311  
 17  7  1  9 23 10.0000000  0  9G23G02G28G03G06G17G12G09G19
  23770542.785    -5018584.776  
  23306509.276   -18235814.415  
  23500472.809    -7689286.441  
  24304039.695    25846448.013  
  20777068.793   -63294978.532  
  20861012.667    -9702377.867  
  23137607.005    48877397.114  
  22749268.980   -18520878.428  
  20426836.289    -4967050.129  
 17  7  1  9 23 15.0000000  0  9G23G02G28G03G06G17G12G09G19
  23770336.547    -5019669.567  
  23304869.257   -18244425.097  
  23503788.349    -7671853.155  
  24307280.255    25863480.137  
  20776917.931   -63295770.492  
  20861674.425    -9698896.763  
  23135641.452    48867070.102  
  22747548.257   -18529922.493  
  20426717.766    -4967683.001  
 17  7  1  9 23 20.0000000  0  9G23G02G28G03G06G17G12G09G19
  23770133.333    -5020741.843  
  23303232.405   -18253033.941  
  23507108.774    -7654417.267  
  24310525.557    25880515.146  
  20776767.662   -63296557.661  
  20862339.493    -9695404.669  
  23133679.210    48856756.734  
  22745827.983   -18538956.500  
  20426598.262    -4968304.937  
 17  7  1  9 23 25.0000000  0  9G23G02G28G03G06G17G12G09G19
  23769932.713    -5021801.675  
  23301594.856   -18261640.953  
  23510426.498    -7636978.952  
  24313765.439    25897552.989  
  20776619.270   -63297340.031  
  20863005.438    -9691901.604  
  23131720.133    48846456.984  
  22744112.019   -18547980.528  
  20426482.352    -4968916.015  
 17  7  1  9 23 30.0000000  0  9G23G02G28G03G06G17G12G09G19
  23769732.557    -5022849.048  
  23299958.343   -18270246.226  
  23513745.688    -7619538.110  
  24317009.649    25914593.699  
  20776471.200   -63298117.627  
  20863674.279    -9688387.582  
  23129761.520    48836170.872  
  22742396.663   -18556994.542  
  20426368.337    -4969516.184  
 17  7  1  9 23 35.0000000  0  9G23G02G28G03G06G17G12G09G19
  23769536.114    -5023883.962  
  23298319.533   -18278849.703  
  23517064.298    -7602094.818  
  24320253.135    25931637.208  
  20776323.980   -63298890.480  
  20864345.402    -9684862.610  
  23127805.762    48825898.331  
  22740684.876   -18565998.583  
  20426255.889    -4970105.468  
 17  7  1  9 23 40.0000000  0  9G23G02G28G03G06G17G12G09G19
  23769339.613    -5024906.333  
  23296684.387   -18287451.308  
  23520386.141    -7584649.011  
  24323496.708    25948683.603  
  20776177.991   -63299658.535  
  20865017.612    -9681326.596  
  23125854.954    48815639.520  
  22738972.317   -18574992.513  
  20426145.101    -4970683.818  
 17  7  1  9 23 45.0000000  0  9G23G02G28G03G06G17G12G09G19
  23769150.725    -5025916.303  
  23295046.836   -18296051.176  
  23523706.725    -7567200.751  
  24326740.451    25965732.814  
  20776032.603   -63300421.840  
  20865692.999    -9677779.664  
  23123903.889    48805394.329  
  22737262.647   -18583976.428  
  20426037.202    -4971251.238  
 17  7  1  9 23 50.0000000  0  9G23G02G28G03G06G17G12G09G19
  23768959.600    -5026913.811  
  23293412.199   -18304649.294  
  23527027.362    -7549750.083  
  24329986.251    25982784.765  
  20775887.839   -63301180.398  
  20866370.585    -9674221.749  
  23121957.741    48795162.802  
  22735555.893   -18592950.289  
  20425931.503    -4971807.756  
 17  7  1  9 23 55.0000000  0  9G23G02G28G03G06G17G12G09G19
  23768770.773    -5027898.764  
  23291774.853   -18313245.578  
  23530348.007    -7532296.982  
  24333232.202    25999839.559  
  20775745.660   -63301934.139  
  20867049.754    -9670652.807  
  23120013.033    48784945.018  
  22733849.146   -18601914.025  
  20425827.959    -4972353.295  
 17  7  1  9 24  0.0000000  0  9G23G02G28G03G06G17G12G09G19
  23768587.421    -5028871.220  
  23290139.118   -18321840.028  
  23533668.833    -7514841.398  
  24336476.188    26016897.157  
  20775603.089   -63302683.133  
  20867730.534    -9667072.860  
  23118072.512    48774740.927  
  22732144.155   -18610867.671  
  20425726.741    -4972887.904  
 17  7  1  9 24  5.0000000  0  9G23G02G28G03G06G17G12G09G19
  23768402.287    -5029831.139  
  23288505.035   -18330432.718  
  23536990.024    -7497383.357  
  24339722.398    26033957.566  
  20775460.311   -63303427.358  
  20868413.968    -9663481.882  
  23116132.785    48764550.543  
  22730443.821   -18619811.195  
  20425627.177    -4973411.561  
 17  7  1  9 24 10.0000000  0  9G23G02G28G03G06G17G12G09G19
  23768224.625    -5030778.529  
  23286869.266   -18339023.571  
  23540311.961    -7479923.004  
  24342969.069    26051020.740  
  20775320.425   -63304166.771  
  20869098.577    -9659879.912  
  23114196.953    48754373.928  
  22728743.374   -18628744.578  
  20425530.218    -4973924.240  
 17  7  1  9 24 15.0000000  0  9G23G02G28G03G06G17G12G09G19
  23768045.880    -5031713.396  
  23285235.706   -18347612.677  
  23543635.248    -7462460.208  
  24346217.233    26068086.661  
  20775180.888   -63304901.468  
  20869786.398    -9656266.968  
  23112261.612    48744210.988  
  22727046.711   -18637667.858  
  20425434.038    -4974425.971  
 17  7  1  9 24 20.0000000  0  9G23G02G28G03G06G17G12G09G19
  23767869.766    -5032635.627  
  23283601.628   -18356199.882  
  23546959.878    -7444994.935  
  24349465.166    26085155.483  
  20775040.833   -63305631.240  
  20870475.990    -9652642.883  
  23110330.189    48734061.900  
  22725348.528   -18646580.840  
  20425341.060    -4974916.592  
 17  7  1  9 24 25.0000000  0  9G23G02G28G03G06G17G12G09G19
  23767696.869    -5033545.418  
  23281968.192   -18364785.454  
  23550283.146    -7427527.442  
  24352715.313    26102226.966  
  20774903.708   -63306356.380  
  20871168.083    -9649007.905  
  23108401.840    48723926.465  
  22723655.279   -18655483.760  
  20425249.153    -4975396.349  
 17  7  1  9 24 30.0000000  0  9G23G02G28G03G06G17G12G09G19
  23767526.872    -5034442.736  
  23280334.651   -18373369.324  
  23553610.029    -7410057.666  
  24355964.498    26119300.987  
  20774766.336   -63307076.863  
  20871861.360    -9645361.981  
  23106476.249    48713804.767  
  22721963.643   -18664376.605  
  20425158.858    -4975865.306  
 17  7  1  9 24 35.0000000  0  9G23G02G28G03G06G17G12G09G19
  23767359.655    -5035327.512  
  23278701.457   -18381951.365  
  23556934.112    -7392585.489  
  24359212.313    26136377.857  
  20774630.170   -63307792.524  
  20872559.420    -9641704.985  
  23104552.721    48703696.860  
  22720273.641   -18673259.209  
  20425072.774    -4976323.222  
 17  7  1  9 24 40.0000000  0  9G23G02G28G03G06G17G12G09G19
  23767193.153    -5036199.751  
  23277069.122   -18390531.673  
  23560256.764    -7375111.013  
  24362462.846    26153457.346  
  20774494.719   -63308503.492  
  20873256.192    -9638037.040  
  23102632.914    48693602.619  
  22718583.926   -18682131.680  
  20424987.549    -4976770.176  
 17  7  1  9 24 45.0000000  0  9G23G02G28G03G06G17G12G09G19
  23767029.199    -5037059.451  
  23275435.471   -18399110.180  
  23563581.534    -7357634.210  
  24365713.209    26170539.562  
  20774360.099   -63309209.691  
  20873955.654    -9634358.049  
  23100713.509    48683522.242  
  22716899.048   -18690993.878  
  20424904.871    -4977206.082  
 17  7  1  9 24 50.0000000  0  9G23G02G28G03G06G17G12G09G19
  23766867.428    -5037906.514  
  23273804.002   -18407686.872  
  23566910.347    -7340155.089  
  24368965.181    26187624.487  
  20774226.374   -63309911.085  
  20874658.444    -9630667.960  
  23098798.575    48673455.635  
  22715213.920   -18699845.853  
  20424823.231    -4977630.974  
 17  7  1  9 24 55.0000000  0  9G23G02G28G03G06G17G12G09G19
  23766708.028    -5038741.055  
  23272171.900   -18416261.825  
  23570236.809    -7322673.723  
  24372216.377    26204712.142  
  20774093.876   -63310607.769  
  20875362.175    -9626966.860  
  23096884.868    48663402.882  
  22713533.024   -18708687.609  
  20424744.535    -4978044.847  
 17  7  1  9 25  0.0000000  0  9G23G02G28G03G06G17G12G09G19
  23766554.384    -5039563.118  
  23270540.403   -18424835.013  
  23573564.878    -7305190.047  
  24375468.464    26221802.358  
  20773962.124   -63311299.739  
  20876069.086    -9623254.737  
  23094974.628    48653363.994  
  22711849.298   -18717519.127  
  20424668.304    -4978447.679  
 17  7  1  9 25  5.0000000  0  9G23G02G28G03G06G17G12G09G19
  23766398.712    -5040372.512  
  23268910.312   -18433406.447  
  23576892.207    -7287704.114  
  24378722.673    26238895.279  
  20773832.352   -63311986.950  
  20876778.691    -9619531.587  
  23093065.365    48643338.911  
  22710170.985   -18726340.360  
  20424593.765    -4978839.469  
 17  7  1  9 25 10.0000000  0  9G23G02G28G03G06G17G12G09G19
  23766249.126    -5041169.406  
  23267278.293   -18441976.095  
  23580215.605    -7270215.914  
  24381974.525    26255990.852  
  20773702.942   -63312669.366  
  20877487.656    -9615797.296  
  23091162.330    48633327.684  
  22708495.896   -18735151.281  
  20424521.592    -4979220.183  
 17  7  1  9 25 15.0000000  0  9G23G02G28G03G06G17G12G09G19
  23766099.002    -5041953.624  
  23265647.883   -18450543.902  
  23583544.331    -7252725.459  
  24385228.271    26273089.117  
  20773572.851   -63313347.050  
  20878200.233    -9612051.933  
  23089258.042    48623330.233  
  22706819.696   -18743951.889  
  20424451.170    -4979589.858  
 17  7  1  9 25 20.0000000  0  9G23G02G28G03G06G17G12G09G19
  23765950.398    -5042725.267  
  23264017.706   -18459109.908  
  23586872.718    -7235232.724  
  24388483.538    26290190.053  
  20773444.852   -63314019.909  
  20878915.618    -9608295.440  
  23087359.281    48613346.741  
  22705147.736   -18752742.117  
  20424380.980    -4979948.441  
 17  7  1  9 25 25.0000000  0  9G23G02G28G03G06G17G12G09G19
  23765806.993    -5043484.313  
  23262389.721   -18467674.256  
  23590203.584    -7217737.840  
  24391738.852    26307293.528  
  20773318.332   -63314688.116  
  20879633.054    -9604527.958  
  23085461.998    48603376.989  
  22703475.536   -18761522.169  
  20424316.848    -4980296.078  
 17  7  1  9 25 30.0000000  0  9G23G02G28G03G06G17G12G09G19
  23765666.830    -5044230.772  
  23260759.542   -18476236.800  
  23593535.404    -7200240.748  
  24394993.974    26324399.651  
  20773191.763   -63315351.555  
  20880351.156    -9600749.385  
  23083568.386    48593421.151  
  22701808.440   -18770291.804  
  20424252.381    -4980632.616  
 17  7  1  9 25 35.0000000  0  9G23G02G28G03G06G17G12G09G19
  23765524.690    -5044964.658  
  23259130.105   -18484797.689  
  23596865.390    -7182741.542  
  24398248.980    26341508.265  
  20773066.078   -63316010.353  
  20881073.006    -9596959.836  
  23081676.948    48583479.063  
  22700140.654   -18779051.179  
  20424190.945    -4980958.174  
 17  7  1  9 25 40.0000000  0  9G23G02G28G03G06G17G12G09G19
  23765390.361    -5045685.980  
  23257500.895   -18493356.788  
  23600195.602    -7165240.160  
  24401504.927    26358619.470  
  20772942.195   -63316664.422  
  20881796.226    -9593159.234  
  23079785.879    48573550.913  
  22698476.529   -18787800.224  
  20424129.592    -4981272.678  
 17  7  1  9 25 45.0000000  0  9G23G02G28G03G06G17G12G09G19
  23765254.213    -5046394.810  
  23255872.442   -18501914.245  
  23603525.570    -7147736.706  
  24404760.345    26375733.183  
  20772818.353   -63317313.823  
  20882521.635    -9589347.595  
  23077900.433    48563636.565  
  22696813.734   -18796538.936  
  20424073.576    -4981576.174  
 17  7  1  9 25 50.0000000  0  9G23G02G28G03G06G17G12G09G19
  23765119.571    -5047090.964  
  23254244.778   -18510469.870  
  23606858.617    -7130231.053  
  24408017.839    26392849.477  
  20772695.587   -63317958.494  
  20883248.549    -9585524.834  
  23076016.921    48553736.134  
  22695151.585   -18805267.273  
  20424018.207    -4981868.638  
 17  7  1  9 25 55.0000000  0  9G23G02G28G03G06G17G12G09G19
  23764990.174    -5047774.546  
  23252616.207   -18519023.808  
  23610188.897    -7112723.349  
  24411277.861    26409968.281  
  20772573.774   -63318598.458  
  20883978.133    -9581691.028  
  23074134.791    48543849.639  
  22693493.966   -18813985.233  
  20423963.647    -4982150.094  
 17  7  1  9 26  0.0000000  0  9G23G02G28G03G06G17G12G09G19
  23764862.250    -5048445.472  
  23250988.251   -18527575.972  
  23613521.651    -7095213.421  
  24414535.492    26427089.700  
  20772452.862   -63319233.684  
  20884709.477    -9577846.130  
  23072256.281    48533977.074  
  22691836.819   -18822692.806  
  20423912.707    -4982420.378  
 17  7  1  9 26  5.0000000  0  9G23G02G28G03G06G17G12G09G19
  23764734.520    -5049103.759  
  23249363.350   -18536126.400  
  23616850.736    -7077701.412  
  24417791.743    26444213.553  
  20772332.859   -63319864.215  
  20885442.588    -9573990.173  
  23070381.971    48524118.436  
  22690179.866   -18831389.981  
  20423863.105    -4982679.611  
 17  7  1  9 26 10.0000000  0  9G23G02G28G03G06G17G12G09G19
  23764613.924    -5049749.360  
  23247734.851   -18544675.095  
  23620187.527    -7060187.334  
  24421050.548    26461339.973  
  20772213.550   -63320489.972  
  20886179.398    -9570123.076  
  23068505.923    48514273.742  
  22688528.758   -18840076.658  
  20423816.344    -4982927.698  
 17  7  1  9 26 15.0000000  0  9G23G02G28G03G06G17G12G09G19
  23764493.398    -5050382.399  
  23246109.857   -18553222.030  
  23623520.811    -7042671.137  
  24424312.429    26478468.880  
  20772096.173   -63321111.089  
  20886917.853    -9566244.946  
  23066636.670    48504443.005  
  22686874.859   -18848752.913  
  20423770.941    -4983164.695  
 17  7  1  9 26 20.0000000  0  9G23G02G28G03G06G17G12G09G19
  23764374.933    -5051002.831  
  23244482.631   -18561767.260  
  23626855.297    -7025152.846  
  24427572.937    26495600.296  
  20771978.424   -63321727.436  
  20887657.368    -9562355.632  
  23064767.333    48494626.220  
  22685227.887   -18857418.755  
  20423728.029    -4983390.564  
 17  7  1  9 26 25.0000000  0  9G23G02G28G03G06G17G12G09G19
  23764258.431    -5051610.613  
  23242858.369   -18570310.787  
  23630187.596    -7007632.518  
  24430832.260    26512734.181  
  20771861.778   -63322339.107  
  20888399.274    -9558455.241  
  23062903.106    48484823.418  
  22683580.301   -18866074.134  
  20423685.935    -4983605.360  
 17  7  1  9 26 30.0000000  0  9G23G02G28G03G06G17G12G09G19
  23764147.575    -5052205.702  
  23241231.168   -18578852.503  
  23633523.110    -6990110.158  
  24434093.365    26529870.594  
  20771746.344   -63322946.080  
  20889143.678    -9554543.688  
  23061038.659    48475034.566  
  22681935.929   -18874719.000  
  20423647.484    -4983809.008  
 17  7  1  9 26 35.0000000  0  9G23G02G28G03G06G17G12G09G19
  23764036.250    -5052788.252  
  23239607.933   -18587392.514  
  23636858.010    -6972585.784  
  24437353.858    26547009.426  
  20771632.442   -63323548.328  
  20889890.332    -9550621.021  
  23059178.321    48465259.766  
  22680292.948   -18883353.396  
  20423611.424    -4984001.537  
 17  7  1  9 26 40.0000000  0  9G23G02G28G03G06G17G12G09G19
  23763926.435    -5053358.159  
  23237982.203   -18595930.860  
  23640190.558    -6955059.455  
  24440616.720    26564150.643  
  20771518.621   -63324145.926  
  20890638.926    -9546687.282  
  23057323.500    48455498.855  
  22678652.193   -18891977.331  
  20423577.019    -4984182.985  
 17  7  1  9 26 45.0000000  0  9G23G02G28G03G06G17G12G09G19
  23763821.137    -5053915.426  
  23236357.268   -18604467.378  
  23643526.763    -6937531.073  
  24443878.803    26581294.382  
  20771405.166   -63324738.756  
  20891389.889    -9542742.357  
  23055468.044    48445752.027  
  22677012.519   -18900590.711  
  20423543.553    -4984353.239  
 17  7  1  9 26 50.0000000  0 10G23G02G28G03G05G06G17G12G09G19
  23763716.053    -5054459.973  
  23234732.835   -18613002.248  
  23646863.326    -6920000.697  
  24447141.817    26598440.523  
  24562699.992    30513683.111  
  20771293.358   -63325326.983  
  20892142.928    -9538786.403  
  23053615.522    48436019.133  
  22675375.494   -18909193.601  
  20423513.163    -4984512.426  
 17  7  1  9 26 55.0000000  0 10G23G02G28G03G05G06G17G12G09G19
  23763616.633    -5054991.937  
  23233108.484   -18621535.386  
  23650197.826    -6902468.364  
  24450404.485    26615589.027  
  24559264.669    30495626.223  
  20771180.773   -63325910.486  
  20892897.766    -9534819.306  
  23051766.946    48426300.222  
  22673740.268   -18917785.982  
  20423486.720    -4984660.478  
 17  7  1  9 27  0.0000000  0 10G23G02G28G03G05G06G17G12G09G19
  23763514.802    -5055511.163  
  23231486.014   -18630066.819  
  23653535.781    -6884934.092  
  24453668.891    26632739.965  
  24555825.791    30477572.832  
  20771072.645   -63326489.324  
  20893654.773    -9530841.104  
  23049920.252    48416595.348  
  22672107.210   -18926367.829  
  20423460.155    -4984797.391  
 17  7  1  9 27  5.0000000  0 10G23G02G28G03G05G06G17G12G09G19
  23763420.271    -5056017.675  
  23229863.977   -18638596.510  
  23656873.740    -6867397.811  
  24456933.443    26649893.346  
  24552390.780    30459523.027  
  20770962.804   -63327063.393  
  20894413.786    -9526851.697  
  23048075.850    48406904.571  
  22670476.873   -18934939.041  
  20423435.167    -4984923.096  
 17  7  1  9 27 10.0000000  0 10G23G02G28G03G05G06G17G12G09G19
  23763327.794    -5056511.670  
  23228239.988   -18647124.544  
  23660209.602    -6849859.666  
  24460197.616    26667049.085  
  24548958.537    30441476.679  
  20770855.159   -63327632.867  
  20895175.853    -9522851.238  
  23046233.073    48397227.807  
  22668846.587   -18943499.765  
  20423413.234    -4985037.727  
 17  7  1  9 27 15.0000000  0 10G23G02G28G03G05G06G17G12G09G19
  23763234.973    -5056992.879  
  23226616.369   -18655650.861  
  23663546.551    -6832319.547  
  24463461.589    26684207.200  
  24545528.097    30423433.913  
  20770747.170   -63328197.622  
  20895937.863    -9518839.609  
  23044394.959    48387565.199  
  22667220.536   -18952049.872  
  20423395.107    -4985141.179  
 17  7  1  9 27 20.0000000  0 10G23G02G28G03G05G06G17G12G09G19
  23763147.424    -5057461.492  
  23224996.306   -18664175.526  
  23666883.479    -6814777.610  
  24466729.403    26701367.623  
  24542095.632    30405394.653  
  20770640.877   -63328757.744  
  20896704.288    -9514816.888  
  23042560.116    48377916.567  
  22665594.607   -18960589.437  
  20423376.529    -4985233.506  
 17  7  1  9 27 25.0000000  0 10G23G02G28G03G05G06G17G12G09G19
  23763061.386    -5057917.393  
  23223373.890   -18672698.436  
  23670225.351    -6797233.690  
  24469993.433    26718530.450  
  24538662.102    30387359.027  
  20770534.806   -63329313.132  
  20897471.364    -9510782.957  
  23040723.634    48368282.095  
  22663971.332   -18969118.312  
  20423361.751    -4985314.620  
 17  7  1  9 27 30.0000000  0 10G23G02G28G03G05G06G17G12G09G19
  23762976.181    -5058360.547  
  23221751.878   -18681219.698  
  23673562.332    -6779687.932  
  24473258.439    26735695.581  
  24535225.684    30369326.919  
  20770430.570   -63329863.873  
  20898241.419    -9506737.893  
  23038893.280    48358661.752  
  22662352.611   -18977636.632  
  20423347.805    -4985384.630  
 17  7  1  9 27 35.0000000  0 10G23G02G28G03G05G06G17G12G09G19
  23762891.143    -5058791.119  
  23220131.463   -18689739.333  
  23676904.488    -6762140.373  
  24476524.756    26752862.969  
  24531798.590    30351298.249  
  20770326.070   -63330410.020  
  20899013.358    -9502681.736  
  23037064.809    48349055.329  
  22660732.053   -18986144.396  
  20423337.031    -4985443.540  
 17  7  1  9 27 40.0000000  0 10G23G02G28G03G05G06G17G12G09G19
  23762814.250    -5059208.949  
  23218508.748   -18698257.171  
  23680245.346    -6744590.891  
  24479791.636    26770032.816  
  24528366.764    30333273.329  
  20770222.563   -63330951.391  
  20899787.433    -9498614.366  
  23035241.909    48339463.083  
  22659114.347   -18994641.412  
  20423327.821    -4985491.125  
 17  7  1  9 27 45.0000000  0 10G23G02G28G03G05G06G17G12G09G19
  23762735.543    -5059614.052  
  23216888.942   -18706773.328  
  23683583.531    -6727039.535  
  24483061.995    26787204.956  
  24524938.991    30315251.962  
  20770120.818   -63331488.120  
  20900562.985    -9494535.860  
  23033417.338    48329884.911  
  22657499.119   -19003127.791  
  20423321.376    -4985527.556  
 17  7  1  9 27 50.0000000  0 10G23G02G28G03G05G06G17G12G09G19
  23762663.549    -5060006.500  
  23215269.266   -18715287.785  
  23686921.990    -6709486.448  
  24486328.479    26804379.296  
  24521512.923    30297234.208  
  20770019.777   -63332020.209  
  20901341.673    -9490446.201  
  23031597.905    48320320.805  
  22655887.599   -19011603.555  
  20423316.349    -4985552.815  
 17  7  1  9 27 55.0000000  0 10G23G02G28G03G05G06G17G12G09G19
  23762590.818    -5060386.251  
  23213651.142   -18723800.545  
  23690263.719    -6691931.510  
  24489597.660    26821555.985  
  24518084.972    30279220.014  
  20769919.143   -63332547.609  
  20902122.199    -9486345.367  
  23029779.882    48310770.816  
  22654275.914   -19020068.586  
  20423313.447    -4985566.853  
 17  7  1  9 28  0.0000000  0 10G23G02G28G03G05G06G17G12G09G19
  23762521.268    -5060753.246  
  23212028.042   -18732311.566  
  23693603.906    -6674374.766  
  24492866.587    26838734.977  
  24514657.627    30261209.487  
  20769819.543   -63333070.340  
  20902904.618    -9482233.360  
  23027965.040    48301234.945  
  22652668.984   -19028522.894  
  20423312.438    -4985569.653  
 17  7  1  9 28  5.0000000  0 10G23G02G28G03G05G06G17G12G09G19
  23762453.432    -5061107.485  
  23210409.662   -18740820.848  
  23696943.660    -6656816.139  
  24496134.796    26855916.353  
  24511229.563    30243202.611  
  20769721.371   -63333588.298  
  20903689.323    -9478109.979  
  23026154.487    48291713.301  
  22651060.477   -19036966.435  
  20423314.860    -4985561.148  
 17  7  1  9 28 10.0000000  0 10G23G02G28G03G05G06G17G12G09G19
  23762389.016    -5061449.104  
  23208789.551   -18749328.480  
  23700284.690    -6639255.806  
  24499405.281    26873099.818  
  24507801.629    30225199.352  
  20769623.616   -63334101.728  
  20904475.875    -9473975.561  
  23024345.352    48282205.715  
  22649455.248   -19045399.388  
  20423317.697    -4985541.568  
 17  7  1  9 28 15.0000000  0 10G23G02G28G03G05G06G17G12G09G19
  23762326.897    -5061777.888  
  23207173.167   -18757834.432  
  23703629.732    -6621693.610  
  24502676.058    26890285.652  
  24504378.852    30207199.717  
  20769527.154   -63334610.415  
  20905265.153    -9469829.956  
  23022539.371    48272712.374  
  22647853.889   -19053821.553  
  20423323.260    -4985510.682  
 17  7  1  9 28 20.0000000  0 10G23G02G28G03G05G06G17G12G09G19
  23762267.391    -5062093.995  
  23205554.103   -18766338.751  
  23706971.950    -6604129.731  
  24505946.731    26907473.618  
  24500955.542    30189203.752  
  20769431.017   -63335114.527  
  20906056.042    -9465673.220  
  23020734.430    48263233.122  
  22646251.566   -19062233.011  
  20423331.866    -4985468.612  
 17  7  1  9 28 25.0000000  0 10G23G02G28G03G05G06G17G12G09G19
  23762206.699    -5062397.544  
  23203934.567   -18774841.514  
  23710314.413    -6586564.310  
  24509218.793    26924663.686  
  24497529.900    30171211.259  
  20769335.696   -63335614.119  
  20906848.750    -9461505.465  
  23018933.740    48253767.916  
  22644654.353   -19070633.883  
  20423341.862    -4985415.492  
 17  7  1  9 28 30.0000000  0 10G23G02G28G03G05G06G17G12G09G19
  23762149.957    -5062688.210  
  23202317.837   -18783342.461  
  23713658.108    -6568996.998  
  24512490.941    26941856.065  
  24494105.776    30153222.580  
  20769241.464   -63336108.965  
  20907643.405    -9457326.375  
  23017134.138    48244317.040  
  22643057.083   -19079023.854  
  20423354.090    -4985350.991  
 17  7  1  9 28 35.0000000  0 10G23G02G28G03G05G06G17G12G09G19
  23762098.478    -5062966.224  
  23200699.788   -18791841.805  
  23717001.771    -6551428.114  
  24515761.198    26959050.600  
  24490684.482    30135237.579  
  20769148.059   -63336599.192  
  20908441.320    -9453136.184  
  23015339.657    48234880.226  
  22641462.072   -19087403.136  
  20423368.147    -4985275.342  
 17  7  1  9 28 40.0000000  0 10G23G02G28G03G05G06G17G12G09G19
  23762050.357    -5063231.419  
  23199083.093   -18800339.402  
  23720343.355    -6533857.423  
  24519036.673    26976247.390  
  24487262.540    30117256.289  
  20769056.296   -63337084.723  
  20909241.305    -9448934.746  
  23013546.816    48225457.727  
  22639869.417   -19095771.560  
  20423385.992    -4985188.372  
 17  7  1  9 28 45.0000000  0 10G23G02G28G03G05G06G17G12G09G19
  23762000.669    -5063483.976  
  23197467.121   -18808835.295  
  23723687.378    -6516285.073  
  24522306.861    26993446.356  
  24483843.323    30099278.730  
  20768963.537   -63337565.622  
  20910042.585    -9444722.084  
  23011755.986    48216049.426  
  22638280.775   -19104129.151  
  20423405.131    -4985090.121  
 17  7  1  9 28 50.0000000  0 10G23G02G28G03G05G06G17G12G09G19
  23761954.362    -5063723.731  
  23195850.094   -18817329.616  
  23727031.204    -6498711.058  
  24525580.286    27010647.497  
  24480423.624    30081304.783  
  20768872.871   -63338041.886  
  20910846.387    -9440498.257  
  23009969.108    48206655.298  
  22636691.078   -19112475.998  
  20423425.075    -4984980.675  
 17  7  1  9 28 55.0000000  0 10G23G02G28G03G05G06G17G12G09G19
  23761912.671    -5063950.719  
  23194233.676   -18825822.215  
  23730381.221    -6481135.386  
  24528854.178    27027850.822  
  24477002.101    30063334.577  
  20768783.673   -63338513.511  
  20911652.229    -9436263.227  
  23008183.842    48197275.417  
  22635103.994   -19120811.952  
  20423448.777    -4984859.899  
 17  7  1  9 29  0.0000000  0 10G23G02G28G03G05G06G17G12G09G19
  23761871.796    -5064164.982  
  23192618.791   -18834313.205  
  23733723.898    -6463558.107  
  24532128.458    27045056.250  
  24473585.116    30045368.050  
  20768695.150   -63338980.495  
  20912460.033    -9432017.025  
  23006402.255    48187909.729  
  22633520.732   -19129137.147  
  20423471.865    -4984727.880  
 17  7  1  9 29  5.0000000  0 10G23G02G28G03G05G06G17G12G09G19
  23761832.686    -5064366.480  
  23191002.235   -18842802.495  
  23737069.198    -6445979.216  
  24535403.929    27062263.800  
  24470166.891    30027405.245  
  20768607.674   -63339442.853  
  20913270.316    -9427759.597  
  23004622.717    48178558.283  
  22631940.665   -19137451.507  
  20423500.723    -4984584.628  
 17  7  1  9 29 10.0000000  0 10G23G02G28G03G05G06G17G12G09G19
  23761796.778    -5064555.323  
  23189389.025   -18851290.173  
  23740415.125    -6428398.716  
  24538676.163    27079473.366  
  24466747.860    30009446.084  
  20768520.969   -63339900.690  
  20914083.086    -9423491.071  
  23002845.810    48169220.965  
  22630358.506   -19145755.070  
  20423529.493    -4984430.175  
 17  7  1  9 29 15.0000000  0 10G23G02G28G03G05G06G17G12G09G19
  23761765.249    -5064731.381  
  23187772.323   -18859776.140  
  23743760.279    -6410816.685  
  24541952.346    27096685.158  
  24463331.348    29991490.737  
  20768434.063   -63340353.865  
  20914896.372    -9419211.301  
  23001071.564    48159897.947  
  22628782.013   -19154047.720  
  20423561.782    -4984264.439  
 17  7  1  9 29 20.0000000  0 10G23G02G28G03G05G06G17G12G09G19
  23761731.555    -5064894.690  
  23186158.465   -18868260.486  
  23747105.843    -6393232.974  
